no,name,address,latitude,longitude,category,reviews,url
0,大阪市中央公会堂,大阪府大阪市北区中之島1-1-27,34.693508,135.504532,名所・史跡,268,https://4travel.jp/dm_shisetsu/10005111
1,梅田スカイビル 空中庭園展望台,大阪府大阪市北区大淀中1-1-88 梅田スカイビル40F,34.704918,135.491028,名所・史跡,276,https://4travel.jp/dm_shisetsu/10005118
2,露天神社(お初天神),大阪府大阪市北区曽根崎2-5-4,34.69873,135.500961,寺・神社,381,https://4travel.jp/dm_shisetsu/10001893
3,天神橋筋商店街,大阪府大阪市北区天神橋1～7丁目,34.69352,135.512543,名所・史跡,216,https://4travel.jp/dm_shisetsu/10005108
4,造幣局桜の通り抜け,大阪府大阪市北区天満1-1-79,34.697521,135.521225,花見,190,https://4travel.jp/dm_shisetsu/10009261
5,大阪天満宮,大阪府大阪市北区天神橋2-1-8,34.69553,135.512634,寺・神社,208,https://4travel.jp/dm_shisetsu/10001890
6,大阪ステーションシティ,大阪府大阪市北区梅田3-1-3,34.701881,135.496338,名所・史跡,231,https://4travel.jp/dm_shisetsu/11187155
7,大阪府立中之島図書館,大阪府大阪市北区中之島1-2-10,34.693611,135.502899,美術館・博物館,142,https://4travel.jp/dm_shisetsu/10014926
8,中之島バラ園,大阪府大阪市北区中之島1,34.692844,135.505432,公園・植物園,155,https://4travel.jp/dm_shisetsu/11311629
9,日本銀行大阪支店,大阪府大阪市北区中之島2-1-45,34.693939,135.500854,名所・史跡,160,https://4travel.jp/dm_shisetsu/10006374
10,難波橋(ライオン橋),大阪府大阪市北区中之島1～中央区北浜1,34.692844,135.505432,名所・史跡,133,https://4travel.jp/dm_shisetsu/11311617
11,淀屋橋,大阪府大阪市北区中之島1丁目～中央区北浜3丁目間,34.692844,135.505432,名所・史跡,175,https://4travel.jp/dm_shisetsu/10603838
12,時空の広場,大阪府大阪市北区梅田3-1-3,34.701881,135.496338,名所・史跡,173,https://4travel.jp/dm_shisetsu/11335958
13,堂島川,大阪府大阪市北区中之島付近,34.693729,135.498489,自然・景勝地,142,https://4travel.jp/dm_shisetsu/11311614
14,新梅田食道街,大阪府大阪市北区角田町9-26,34.703907,135.49791,名所・史跡,129,https://4travel.jp/dm_shisetsu/10005112
15,HEP FIVE観覧車,大阪府大阪市北区角田町5-15,34.703846,135.499634,テーマパーク,106,https://4travel.jp/dm_shisetsu/10000510
16,土佐堀川,大阪府大阪市北区中之島付近,34.693729,135.498489,自然・景勝地,131,https://4travel.jp/dm_shisetsu/11311613
17,国立国際美術館,大阪府大阪市北区中之島4-2-55,34.691948,135.491913,美術館・博物館,123,https://4travel.jp/dm_shisetsu/10014925
18,新梅田シティ,大阪府大阪市北区大淀中1-1,34.705437,135.490128,名所・史跡,109,https://4travel.jp/dm_shisetsu/10005116
19,大江橋,大阪府大阪市北区西天満2丁目～北区中之島1丁目,34.695698,135.503433,名所・史跡,121,https://4travel.jp/dm_shisetsu/11290401
20,大阪市立東洋陶磁美術館,大阪府大阪市北区中之島1-1-26,34.693596,135.504517,美術館・博物館,87,https://4travel.jp/dm_shisetsu/10014928
21,OSAKA光のルネサンス,大阪府大阪市北区中之島一帯 大阪市役所周辺～中之島公園,34.692844,135.505432,イルミネーション,96,https://4travel.jp/dm_shisetsu/10217975
22,うめきた広場,大阪府大阪市北区大深町4-1,34.703659,135.494705,名所・史跡,100,https://4travel.jp/dm_shisetsu/11342885
23,フェスティバルホール,大阪府大阪市北区中之島2-3-18,34.693626,135.496872,名所・史跡,83,https://4travel.jp/dm_shisetsu/11348562
24,大阪市役所,大阪府大阪市北区中之島1-3-20,34.693871,135.501282,名所・史跡,82,https://4travel.jp/dm_shisetsu/11602149
25,大川,大阪府大阪市北区～中央区～都島区,34.705555,135.509995,自然・景勝地,98,https://4travel.jp/dm_shisetsu/11311560
26,水晶橋,大阪府大阪市北区西天満2丁目～中之島1丁目,34.695698,135.503433,名所・史跡,82,https://4travel.jp/dm_shisetsu/11290349
27,天満橋,大阪府大阪市北区天満1丁目～大阪市中央区大手町1丁目,34.694408,135.520081,名所・史跡,80,https://4travel.jp/dm_shisetsu/11290793
28,淀川,滋賀県～大阪府,35.004444,135.868332,自然・景勝地,69,https://4travel.jp/dm_shisetsu/11342160
29,中之島フェスティバルタワー,大阪府大阪市北区中之島2-3-18,34.693626,135.496872,名所・史跡,80,https://4travel.jp/dm_shisetsu/11325989
30,天神橋,大阪府大阪市北区天神橋1丁目～中央区北浜東,34.69352,135.512543,名所・史跡,80,https://4travel.jp/dm_shisetsu/11290348
31,栴檀木橋(せんだんのきばし),大阪府大阪市北区中之島1丁目～中央区北浜2丁目,34.692844,135.505432,名所・史跡,73,https://4travel.jp/dm_shisetsu/11311616
32,毛馬桜之宮公園,大阪府大阪市都島区中野町1丁目 ほか,34.699627,135.52359,公園・植物園,81,https://4travel.jp/dm_shisetsu/10018086
33,靭公園,大阪府大阪市西区靱本町,34.683361,135.487778,公園・植物園,79,https://4travel.jp/dm_shisetsu/11556684
34,阪急古書のまち・かっぱ横丁,大阪府大阪市北区芝田1-6-2,34.706512,135.498367,名所・史跡,85,https://4travel.jp/dm_shisetsu/10006095
35,大阪くらしの今昔館,大阪府大阪市北区天神橋6-4-20 大阪市立住まい情報センター内,34.71059,135.511459,美術館・博物館,54,https://4travel.jp/dm_shisetsu/10014931
36,大阪市立科学館,大阪府大阪市北区中之島4-2-1,34.691406,135.492493,美術館・博物館,78,https://4travel.jp/dm_shisetsu/10014927
37,梅田芸術劇場,大阪府大阪市北区茶屋町19-1,34.708168,135.499359,名所・史跡,60,https://4travel.jp/dm_shisetsu/11331082
38,太融寺,大阪府大阪市北区太融寺町3-7,34.701519,135.504181,寺・神社,99,https://4travel.jp/dm_shisetsu/10001892
39,扇町公園,大阪府大阪市北区扇町1,34.703568,135.509201,公園・植物園,63,https://4travel.jp/dm_shisetsu/11311626
40,天満天神繁昌亭,大阪府大阪市北区天神橋2-1-34,34.69656,135.512405,名所・史跡,71,https://4travel.jp/dm_shisetsu/11289022
41,滝見小路,大阪府大阪市北区大淀中1-1-88,34.704918,135.491028,名所・史跡,57,https://4travel.jp/dm_shisetsu/10005117
42,中之島ガーデンブリッジ,大阪府大阪市北区堂島1丁目～大阪府大阪市北区中之島2丁目,34.696594,135.497665,名所・史跡,55,https://4travel.jp/dm_shisetsu/11323392
43,渡辺橋,大阪府大阪市北区中之島2丁目～大阪市北区堂島浜,34.693729,135.498489,名所・史跡,69,https://4travel.jp/dm_shisetsu/11291015
44,阪急東通り商店街,大阪府大阪市北区堂山町・神山町,34.703705,135.503204,名所・史跡,66,https://4travel.jp/dm_shisetsu/10005113
45,ダイビル 本館,大阪府大阪市北区中之島3-6-32,34.693352,135.492294,名所・史跡,37,https://4travel.jp/dm_shisetsu/11382280
46,梅田阪急ビル オフィスタワー,大阪府大阪市北区角田町8-1,34.70211,135.499161,名所・史跡,48,https://4travel.jp/dm_shisetsu/11379557
47,肥後橋,大阪府大阪市北区中之島2～西区土佐堀1,34.693729,135.498489,名所・史跡,65,https://4travel.jp/dm_shisetsu/11291014
48,北向地蔵尊,大阪府大阪市北区芝田1-1-3　阪急三番街　南館1F地蔵横丁通り,34.70414,135.499008,名所・史跡,59,https://4travel.jp/dm_shisetsu/11347680
49,鉾流橋(ほこながしばし),大阪府大阪市北区西天満2丁目～中之島1丁目,34.695698,135.503433,名所・史跡,55,https://4travel.jp/dm_shisetsu/11290554
50,中之島遊歩道,大阪府大阪市北区中之島2～6丁目,34.693729,135.498489,名所・史跡,43,https://4travel.jp/dm_shisetsu/11615722
51,綱敷天神社 御旅社,大阪府大阪市北区茶屋町12-5,34.706863,135.498581,寺・神社,64,https://4travel.jp/dm_shisetsu/11290186
52,大阪 光の饗宴,大阪府大阪市北区中之島 大阪市庁舎周辺～中之島公園,34.693729,135.498489,イルミネーション,33,https://4travel.jp/dm_shisetsu/11359272
53,ドイツ・クリスマスマーケット大阪,大阪府大阪市北区大淀中1-1-88 梅田スカイビル 新梅田シティワンダースクエア,34.704918,135.491028,イルミネーション,70,https://4travel.jp/dm_shisetsu/10217977
54,風の広場,大阪府大阪市北区梅田3丁目1-3 ノースゲートビルディング11F,34.701881,135.496338,公園・植物園,47,https://4travel.jp/dm_shisetsu/11339657
55,ばらぞの橋,大阪府大阪市北区中之島1,34.692844,135.505432,名所・史跡,52,https://4travel.jp/dm_shisetsu/11290480
56,水天宮 金刀比羅宮,大阪府大阪市北区曽根崎2-5-4 露天神社境内,34.69873,135.500961,寺・神社,37,https://4travel.jp/dm_shisetsu/11616546
57,開運稲荷社 (露天神社),大阪府大阪市北区曽根崎2-5-4 露天神社内,34.69873,135.500961,寺・神社,41,https://4travel.jp/dm_shisetsu/11381084
58,みおつくしプロムナード,大阪府大阪市北区中之島1　大阪市役所南側 土佐堀川沿い,34.692844,135.505432,名所・史跡,32,https://4travel.jp/dm_shisetsu/11382258
59,空庭ダイニング,大阪府大阪市北区角田町8-47,34.702766,135.49939,名所・史跡,37,https://4travel.jp/dm_shisetsu/11374111
60,空庭ダイニング,大阪府大阪市北区角田町8-47,34.702766,135.49939,名所・史跡,37,https://4travel.jp/dm_shisetsu/11374111
61,ナレッジキャピタル,大阪府大阪市北区大深町3番1号グランフロント大阪（北館）,34.705833,135.494339,名所・史跡,42,https://4travel.jp/dm_shisetsu/11340975
62,祝祭広場,大阪府大阪市北区角田町8-7 阪急百貨店9階,34.702087,135.49852,名所・史跡,40,https://4travel.jp/dm_shisetsu/11335979
63,堀川戎神社,大阪府大阪市北区西天満5-4-17,34.699738,135.509079,寺・神社,43,https://4travel.jp/dm_shisetsu/10001891
64,梅田BIGMAN,大阪府大阪市北区芝田1-1-3 阪急三番街南館1F,34.70414,135.499008,名所・史跡,53,https://4travel.jp/dm_shisetsu/11338758
65,福島天満宮,大阪府大阪市福島区福島2-8-1,34.694626,135.487213,寺・神社,38,https://4travel.jp/dm_shisetsu/11289569
66,錦橋(にしきばし),大阪府大阪市北区中之島2丁目～西区土佐堀1丁目,34.693729,135.498489,名所・史跡,51,https://4travel.jp/dm_shisetsu/11291013
67,ほたるまち,大阪府大阪市福島区福島1－1,34.694305,135.489349,名所・史跡,45,https://4travel.jp/dm_shisetsu/11289896
68,阪急サン広場地下通り,大阪府大阪市北区角田町8番47号,34.702766,135.49939,名所・史跡,38,https://4travel.jp/dm_shisetsu/11342899
69,桜宮橋,大阪府大阪市北区天満橋1丁目～大阪市都島区中野町1丁目間,34.700069,135.519958,名所・史跡,42,https://4travel.jp/dm_shisetsu/11290305
70,アトリウム広場,大阪府大阪市北区梅田3-1-3 ノースゲート ビルディング2F,34.701881,135.496338,名所・史跡,53,https://4travel.jp/dm_shisetsu/11340066
71,泉布観,大阪府大阪市北区天満橋1-1-1,34.697861,135.522003,名所・史跡,36,https://4travel.jp/dm_shisetsu/10005114
72,玉江橋,大阪府大阪市北区中之島4丁目～福島区福島1丁目,34.691616,135.490982,名所・史跡,45,https://4travel.jp/dm_shisetsu/11293648
73,The Lab.～みんなで世界一研究所～,大阪府大阪市北区大深町3-1 グランフロント大阪北館 ナレッジキャピタル 2F、3F,34.705833,135.494339,美術館・博物館,40,https://4travel.jp/dm_shisetsu/11341303
74,メルセデス ベンツ,大阪府大阪市北区大深町3-1 グランフロント大阪 ナレッジキャピタル1F,34.705833,135.494339,名所・史跡,40,https://4travel.jp/dm_shisetsu/11341088
75,大阪国際会議場 (グランキューブ大阪),大阪府大阪市北区中之島５丁目３－５１,34.689934,135.486069,名所・史跡,44,https://4travel.jp/dm_shisetsu/11353699
76,大阪四季劇場,大阪府大阪市北区梅田2-2-22 ハービスPLAZA ENT 7階,34.700424,135.495209,名所・史跡,41,https://4travel.jp/dm_shisetsu/11325836
77,関西テレビ,大阪府大阪市北区扇町2-1-7,34.704266,135.509933,名所・史跡,37,https://4travel.jp/dm_shisetsu/11359387
78,造幣博物館,大阪府大阪市北区天満1-1-79,34.697521,135.521225,美術館・博物館,35,https://4travel.jp/dm_shisetsu/10014932
79,福澤諭吉誕生地記念碑,大阪府大阪市福島区福島1丁目,34.694656,135.489044,名所・史跡,37,https://4travel.jp/dm_shisetsu/11288886
80,造幣局(工場見学),大阪府大阪市北区天満1-1-79,34.697521,135.521225,名所・史跡,39,https://4travel.jp/dm_shisetsu/11311615
81,南館テラスガーデン (グランフロント大阪),大阪府大阪市北区大深町4-1 グランフロント大阪 南館9階,34.703659,135.494705,公園・植物園,42,https://4travel.jp/dm_shisetsu/11341718
82,キッズプラザ大阪,大阪府大阪市北区扇町2-1-7,34.704266,135.509933,美術館・博物館,34,https://4travel.jp/dm_shisetsu/10014930
83,南天満公園,大阪府大阪市北区天神橋１丁目,34.69352,135.512543,公園・植物園,39,https://4travel.jp/dm_shisetsu/11289988
84,ザ シンフォニーホール,大阪府大阪市北区大淀南2-3-3,34.70121,135.486145,名所・史跡,24,https://4travel.jp/dm_shisetsu/11331098
85,天空の農園,大阪府大阪市北区梅田3丁目1-3 ノースゲートビルディング14F,34.701881,135.496338,名所・史跡,35,https://4travel.jp/dm_shisetsu/11339658
86,ボーネルンドあそびのせかい (グランフロント大阪店),大阪府大阪市北区大深町3-1 グランフロント大阪 ナレッジキャピタル3F,34.705833,135.494339,テーマパーク,30,https://4travel.jp/dm_shisetsu/11341090
87,綱敷天神社 御本社,大阪府大阪市北区神山町9-11,34.703415,135.504715,寺・神社,131,https://4travel.jp/dm_shisetsu/11558262
88,田蓑橋,大阪府大阪市北区堂島3丁目　大阪市北区中之島3丁目,34.69545,135.491257,名所・史跡,37,https://4travel.jp/dm_shisetsu/11292659
89,北館テラスガーデン (グランフロント大阪),大阪府大阪市北区大深町4-1 グランフロント大阪 北館9階,34.703659,135.494705,公園・植物園,36,https://4travel.jp/dm_shisetsu/11341720
90,ごて地蔵,大阪府大阪市北区曾根崎２丁目１６－１４,34.70179,135.499756,名所・史跡,35,https://4travel.jp/dm_shisetsu/11349835
91,堂島薬師堂,大阪府大阪市北区堂島1丁目6-20,34.697212,135.495636,名所・史跡,40,https://4travel.jp/dm_shisetsu/11290529
92,難波神明社 (露天神社),大阪府大阪市北区曽根崎2-5-4,34.69873,135.500961,名所・史跡,29,https://4travel.jp/dm_shisetsu/11381087
93,阪急うめだギャラリー,大阪府大阪市北区角田町8-7 阪急うめだ本店9階,34.702087,135.49852,名所・史跡,38,https://4travel.jp/dm_shisetsu/11344294
94,蛸の松,大阪府大阪市福島区福島1丁目　田蓑橋北詰,34.694656,135.489044,自然・景勝地,32,https://4travel.jp/dm_shisetsu/11347901
95,中之島香雪美術館,大阪府大阪市北区中之島3-2-4 中之島フェスティバルタワー・ウエスト 4階,34.693005,135.495529,美術館・博物館,20,https://4travel.jp/dm_shisetsu/11744444
96,堂島リバーフォーラム,大阪府大阪市福島区福島1-1-17,34.693623,135.489197,名所・史跡,32,https://4travel.jp/dm_shisetsu/11325697
97,大阪ガラス発祥の地碑,大阪府大阪市北区天神橋2-1-8,34.69553,135.512634,名所・史跡,37,https://4travel.jp/dm_shisetsu/11354001
98,下福島公園,大阪府大阪市福島区福島４丁目１,34.689899,135.482452,公園・植物園,22,https://4travel.jp/dm_shisetsu/11353697
99,関一の銅像,大阪府大阪市北区中之島1-1,34.693573,135.504059,名所・史跡,23,https://4travel.jp/dm_shisetsu/11382273
100,歯神社,大阪府大阪市北区角田町2-8,34.704872,135.501022,寺・神社,32,https://4travel.jp/dm_shisetsu/11290185
101,堂島大橋,大阪府大阪市北区中之島5丁目、6丁目～大阪市福島区玉川1丁目,34.690281,135.487946,名所・史跡,29,https://4travel.jp/dm_shisetsu/11293649
102,筑前橋,大阪府大阪市北区中之島3丁目、大阪市北区中之島4丁目～大阪市西区土佐堀,34.69276,135.493958,名所・史跡,35,https://4travel.jp/dm_shisetsu/11290549
103,恵美須神社 (野田恵美須神社),大阪府大阪市福島区玉川4丁目1番1,34.688026,135.479065,寺・神社,18,https://4travel.jp/dm_shisetsu/11289563
104,絹谷幸二 天空美術館,大阪府大阪市北区大淀中1-1-30 梅田スカイビルタワーウエスト27階,34.70517,135.489212,美術館・博物館,11,https://4travel.jp/dm_shisetsu/11833670
105,ダイキンソリューションプラザ フーハ大阪,大阪府大阪市北区大深町3-1 グランフロント大阪 ナレッジキャピタル4F,34.705833,135.494339,名所・史跡,31,https://4travel.jp/dm_shisetsu/11341114
106,大阪市道路元標,大阪府北区梅田一丁目,34.68639,135.520004,名所・史跡,30,https://4travel.jp/dm_shisetsu/11346567
107,国産ビール発祥の地,大阪府大阪市北区堂島１丁目４,34.696133,135.497726,名所・史跡,36,https://4travel.jp/dm_shisetsu/11326631
108,大塩平八郎墓所,大阪府大阪市北区末広町1-7 成正寺,34.700012,135.51004,名所・史跡,27,https://4travel.jp/dm_shisetsu/11291650
109,ABC 朝日放送本社,大阪府大阪市福島区福島1丁目1番30号,34.693604,135.488159,名所・史跡,28,https://4travel.jp/dm_shisetsu/11363103
110,オオサカガーデンシティ,大阪府大阪市北区梅田3,34.700836,135.493881,名所・史跡,31,https://4travel.jp/dm_shisetsu/10005110
111,ちゃやまちアプローズ (阪急茶屋町ビルディング),大阪府大阪市北区茶屋町19-19,34.708309,135.497833,名所・史跡,22,https://4travel.jp/dm_shisetsu/11584289
112,川崎橋,大阪府大阪市北区天満1丁目～都島区網島町,34.694408,135.520081,名所・史跡,28,https://4travel.jp/dm_shisetsu/11311562
113,川端康成生誕之地,大阪府大阪市北区天神橋1丁目16-12 料亭相生楼前,34.695435,135.513321,名所・史跡,26,https://4travel.jp/dm_shisetsu/11291647
114,太陽の広場,大阪府大阪市北区梅田3丁目1-1 サウスゲートビルディング15F,34.701881,135.496338,公園・植物園,35,https://4travel.jp/dm_shisetsu/11339662
115,中之島バンクス,大阪市北区中之島5-3-60,34.690578,135.486664,名所・史跡,23,https://4travel.jp/dm_shisetsu/11362978
116,喜多埜稲荷神社 (綱敷天神社,大阪府大阪市北区神山町9-11,34.703415,135.504715,寺・神社,25,https://4travel.jp/dm_shisetsu/11381090
117,ごて地蔵通り,大阪府大阪市北区曽根崎2丁目12～14,34.701233,135.499802,名所・史跡,30,https://4travel.jp/dm_shisetsu/11349838
118,中自然の森,大阪府大阪市北区大淀中1-1-88　新梅田シティ地下1F,34.704918,135.491028,公園・植物園,22,https://4travel.jp/dm_shisetsu/10018087
119,川田順 歌碑,大阪府大阪市北区中之島1-2-10 ,34.693611,135.502899,名所・史跡,22,https://4travel.jp/dm_shisetsu/11382257
120,大阪観光案内所,大阪市北区梅田3-1-1 JR大阪駅 1F中央コンコース,34.701881,135.496338,名所・史跡,9,https://4travel.jp/dm_shisetsu/11876420
121,OSビル,大阪府大阪市北区小松原町3ー3,34.702641,135.500229,名所・史跡,15,https://4travel.jp/dm_shisetsu/11342894
122,TKPゲートタワービル,大阪府大阪市福島区福島5-4-21,34.698288,135.489243,名所・史跡,27,https://4travel.jp/dm_shisetsu/11289552
123,淀川三十石船舟唄歌碑,大阪府大阪市北区天神橋1丁目　南天満公園,34.69352,135.512543,名所・史跡,22,https://4travel.jp/dm_shisetsu/11353995
124,梅田貨物駅跡,大阪府大阪市北区,34.705555,135.509995,名所・史跡,35,https://4travel.jp/dm_shisetsu/11343178
125,ちゃやまちプラザ,大阪府大阪市北区茶屋町17-1　毎日放送本社1F ,34.708298,135.500305,名所・史跡,22,https://4travel.jp/dm_shisetsu/11584291
126,ディアモール ブライトクリスマス,大阪府大阪市北区梅田1大阪駅前ダイヤモンド地下街,34.700012,135.497726,イルミネーション,15,https://4travel.jp/dm_shisetsu/11286737
127,和らぎの庭,大阪府大阪市北区梅田3丁目1-3 ノースゲートビルディング10F,34.701881,135.496338,公園・植物園,30,https://4travel.jp/dm_shisetsu/11339660
128,常安橋,大阪府大阪市北区中之島4丁目～西区土佐堀2丁目,34.691616,135.490982,名所・史跡,25,https://4travel.jp/dm_shisetsu/11291176
129,ナムコ梅田店,大阪府大阪市北区小松原町3-3 OSビル1～3階,34.702641,135.500229,名所・史跡,13,https://4travel.jp/dm_shisetsu/11342895
130,南ゲート広場,大阪府大阪市北区梅田3-1-1 サウスゲートビルディング1F,34.701881,135.496338,名所・史跡,27,https://4travel.jp/dm_shisetsu/11340065
131,旧大阪毎日新聞大阪本社 旧社屋玄関,大阪府大阪市北区堂島1-6-20,34.697212,135.495636,名所・史跡,17,https://4travel.jp/dm_shisetsu/11613622
132,Red&Blue Street,大阪府大阪市福島区福島1丁目 ,34.694656,135.489044,公園・植物園,16,https://4travel.jp/dm_shisetsu/11555307
133,マイドームおおさか,大阪府大阪市中央区本町橋2-5 ,34.68478,135.511551,名所・史跡,31,https://4travel.jp/dm_shisetsu/11343901
134,朝日新聞大阪本社,大阪府大阪市北区中之島2-3-18,34.693626,135.496872,名所・史跡,18,https://4travel.jp/dm_shisetsu/11311622
135,大阪通商会社為替会社跡,大阪府大阪市北区中之島1-1 中央公会堂南側,34.693573,135.504059,名所・史跡,23,https://4travel.jp/dm_shisetsu/11382252
136,与謝蕪村句碑 (菜の花や月は東に日は西に),大阪府大阪市北区茶屋町19-1 梅田芸術劇場前,34.708168,135.499359,名所・史跡,18,https://4travel.jp/dm_shisetsu/11381205
137,徳兵衛稲荷大明神,大阪府大阪市北区梅田1-2 大阪駅前第2ビル3F,34.698738,135.498093,寺・神社,12,https://4travel.jp/dm_shisetsu/11558260
138,茶屋町あるこ,大阪府大阪市北区芝田1-6-2,34.706512,135.498367,名所・史跡,6,https://4travel.jp/dm_shisetsu/11917672
139,靭庭球場,大阪府大阪市西区靱本町2-1-14　靭公園内,34.684372,135.49263,名所・史跡,17,https://4travel.jp/dm_shisetsu/11340983
140,大ぴちょんくん,大阪府大阪市北区角田町2-15 シログチビル屋上,34.704887,135.501312,名所・史跡,16,https://4travel.jp/dm_shisetsu/11602658
141,毛馬第一閘門,大阪府大阪市北区長柄東3丁目3-25,34.718758,135.516006,名所・史跡,14,https://4travel.jp/dm_shisetsu/11290332
142,了徳院 (浦江聖天),大阪府大阪市福島区鷺洲2-14-1,34.698093,135.482941,寺・神社,11,https://4travel.jp/dm_shisetsu/11376502
143,天満青物市場跡の碑,大阪府大阪市北区天満3 南天満公園内,34.693626,135.515366,名所・史跡,25,https://4travel.jp/dm_shisetsu/10005115
144,大阪市中央卸売市場,大阪府大阪市福島区野田1-1-86,34.68602,135.481049,名所・史跡,15,https://4travel.jp/dm_shisetsu/11311566
145,将基島粗朶水制跡碑,大阪府大阪市北区天神橋1丁目 南天満公園,34.69352,135.512543,名所・史跡,20,https://4travel.jp/dm_shisetsu/11353993
146,天満の子守歌歌碑,大阪府大阪市北区天神橋1丁目　南天満公園,34.69352,135.512543,名所・史跡,17,https://4travel.jp/dm_shisetsu/11560276
147,フジハラビル,大阪府大阪市北区天神橋1丁目10-4,34.693626,135.512131,名所・史跡,11,https://4travel.jp/dm_shisetsu/11289977
148,チャスカ茶屋町,大阪府大阪市北区茶屋町7-20,34.707253,135.500336,名所・史跡,15,https://4travel.jp/dm_shisetsu/11584288
149,大阪府警察コミュニティープラザ,大阪市北区曽根崎2-16-14 曽根崎警察署地階,34.70179,135.499756,美術館・博物館,27,https://4travel.jp/dm_shisetsu/11353901
150,極楽寺,大阪府大阪市福島区玉川4丁目3-7,34.68845,135.478195,寺・神社,13,https://4travel.jp/dm_shisetsu/11382223
151,夫婦橋,大阪府大阪市北区天神橋4丁目,34.704609,135.511673,名所・史跡,20,https://4travel.jp/dm_shisetsu/11291751
152,法清寺,大阪府大阪市北区曽根崎1-2-19,34.698837,135.502884,寺・神社,17,https://4travel.jp/dm_shisetsu/11361284
153,中之島 ラブ,大阪府大阪市北区西天満2-1-18,34.695171,135.503174,公園・植物園,13,https://4travel.jp/dm_shisetsu/11559139
154,阪急ツーリストセンター大阪 梅田,大阪府大阪市北区芝田1-2-1　阪急梅田駅構内,34.705593,135.498764,名所・史跡,17,https://4travel.jp/dm_shisetsu/11348635
155,龍王大神,大阪府大阪市北区野崎町8,34.701298,135.506195,寺・神社,17,https://4travel.jp/dm_shisetsu/11392718
156,なにわの湯,大阪府大阪市北区長柄西1-7-31,34.715389,135.513779,温泉,14,https://4travel.jp/dm_shisetsu/11326173
157,エナレッジ,大阪府大阪市北区大深町3-1 グランフロント大阪 ナレッジキャピタル3F,34.705833,135.494339,名所・史跡,21,https://4travel.jp/dm_shisetsu/11341113
158,西山宗因向栄庵跡,大阪府大阪市北区天神橋2丁目1-8,34.69553,135.512634,名所・史跡,16,https://4travel.jp/dm_shisetsu/11354006
159,毛馬水門,大阪府大阪市北区長柄東３,34.718204,135.517548,名所・史跡,10,https://4travel.jp/dm_shisetsu/11331209
160,緒方洪庵墓所,大阪府大阪市北区同心1丁目3-1 龍海寺,34.699738,135.516388,名所・史跡,16,https://4travel.jp/dm_shisetsu/11291649
161,芭蕉句碑,大阪府大阪市北区天神橋2-1-8 大阪天満宮内,34.69553,135.512634,名所・史跡,15,https://4travel.jp/dm_shisetsu/10007730
162,上船津橋,大阪府大阪市北区中之島6丁目～大阪市福島区玉川1丁目,34.687092,135.48439,名所・史跡,16,https://4travel.jp/dm_shisetsu/11291081
163,逆櫓の松跡,大阪府大阪市福島区福島2-2-4,34.693684,135.487198,名所・史跡,14,https://4travel.jp/dm_shisetsu/11371272
164,榎木神社 (地車稲荷神社),大阪府大阪市北区西天満5丁目4番17号　,34.699738,135.509079,寺・神社,10,https://4travel.jp/dm_shisetsu/11559395
165,船津橋,大阪府大阪市福島区玉川3丁目～大阪市北区中之島6丁目,34.687386,135.480301,名所・史跡,18,https://4travel.jp/dm_shisetsu/11291083
166,天満別院,大阪府大阪市北区東天満１丁目８－２６,34.696198,135.516113,寺・神社,14,https://4travel.jp/dm_shisetsu/11354000
167,凌雲閣跡碑,大阪府大阪市北区茶屋町2-9 梅田東生涯学習ルーム体育館門前,34.705723,135.499634,名所・史跡,14,https://4travel.jp/dm_shisetsu/11381206
168,蔵屋敷跡,大阪市北区中之島5-3 リーガロイヤルホテル前,34.690937,135.486832,名所・史跡,17,https://4travel.jp/dm_shisetsu/11361293
169,中央電気倶楽部,大阪府大阪市北区堂島浜2-1-25,34.695534,135.494431,名所・史跡,12,https://4travel.jp/dm_shisetsu/11311618
170,イベントラボ,大阪府大阪市北区大深町3-1 グランフロント大阪 ナレッジキャピタルB1,34.705833,135.494339,名所・史跡,8,https://4travel.jp/dm_shisetsu/11341110
171,イースクエア茶屋町,大阪府大阪市北区茶屋町2-16,34.705742,135.498993,名所・史跡,11,https://4travel.jp/dm_shisetsu/11291657
172,能勢街道,大阪府大阪市北区中津～池田市～能勢妙見宮～亀岡,34.706844,135.491608,名所・史跡,15,https://4travel.jp/dm_shisetsu/11311715
173,シネ リーブル梅田,大阪府大阪市北区大淀中1-1-88 梅田スカイビルタワーイースト3F,34.704918,135.491028,名所・史跡,10,https://4travel.jp/dm_shisetsu/11358217
174,大阪市交通局曽根崎変電所,大阪府大阪市北区西天満2丁目7-9,34.695755,135.501923,名所・史跡,13,https://4travel.jp/dm_shisetsu/11290492
175,素盞烏尊神社 (浦江八坂神社),大阪府大阪市北区大淀南3-3-25,34.700985,135.482468,寺・神社,10,https://4travel.jp/dm_shisetsu/11289942
176,曽根崎川跡碑,大阪市北区曽根崎新地1-5-29,34.697792,135.498032,名所・史跡,22,https://4travel.jp/dm_shisetsu/11361324
177,土佐堀橋,大阪府大阪市北区中之島5丁目、中之島6丁目～大阪市西区土佐堀2丁目、土佐堀3丁目,34.690281,135.487946,名所・史跡,17,https://4travel.jp/dm_shisetsu/11290575
178,あみだ池筋,大阪府大阪市北区大淀中二丁目～浪速区芦原橋交差点,34.704697,135.486572,名所・史跡,14,https://4travel.jp/dm_shisetsu/11353909
179,佐賀藩蔵屋敷跡,大阪府大阪市北西天満2丁目 大阪地方裁判所,34.705555,135.509995,名所・史跡,13,https://4travel.jp/dm_shisetsu/11555850
180,民間放送誕生の地,大阪府大阪市角田町8-7 阪急うめだ本店,,,名所・史跡,11,https://4travel.jp/dm_shisetsu/11631514
181,白龍大神,大阪市北区中崎西1-9,34.708305,135.503815,寺・神社,10,https://4travel.jp/dm_shisetsu/11356130
182,長柄橋,大阪府大阪市北区本庄東～大阪市東淀川区柴島,34.711517,135.508713,名所・史跡,12,https://4travel.jp/dm_shisetsu/11290333
183,スマートキャンプ ロート製薬,大阪府大阪市北区大深町3-1 グランフロント大阪 ナレッジキャピタル6F,34.705833,135.494339,名所・史跡,12,https://4travel.jp/dm_shisetsu/11341120
184,天神社 (福島,大阪府大阪市福島区玉川1-4-5,34.688522,135.482758,寺・神社,11,https://4travel.jp/dm_shisetsu/11290059
185,読売新聞大阪本社,大阪府大阪市北区野崎町5-9,34.700047,135.50621,名所・史跡,11,https://4travel.jp/dm_shisetsu/11311623
186,阪急うめだホール,大阪府大阪市北区角田町8-7　阪急百貨店うめだ本店9階,34.702087,135.49852,名所・史跡,9,https://4travel.jp/dm_shisetsu/11375136
187,ザ フェニックスホール,大阪府大阪市北区西天満 4-15-10　あいおいニッセイ同和損保フェニックスタワー内,34.697926,135.500961,名所・史跡,7,https://4travel.jp/dm_shisetsu/11616471
188,雙松岡塾跡,大阪府大阪市福島区福島1 (中之島合同庁舎南東、田蓑橋北詰),34.694656,135.489044,名所・史跡,12,https://4travel.jp/dm_shisetsu/11381183
189,ミナミ旧川崎貯蓄銀行福島出張所,大阪府大阪市福島区福島5-17-7,34.694942,135.484833,名所・史跡,11,https://4travel.jp/dm_shisetsu/11311565
190,淀川神社,大阪府大阪市都島区毛馬町１丁目２－１１,34.71817,135.521072,寺・神社,8,https://4travel.jp/dm_shisetsu/11349637
191,天神祭,大阪市北区天神橋二丁目1番8号,34.69553,135.512634,祭り・イベント,15,https://4travel.jp/dm_shisetsu/11327221
192,玉姫稲荷神社 (綱敷天神社,大阪府大阪市北区茶屋町12-5,34.706863,135.498581,寺・神社,13,https://4travel.jp/dm_shisetsu/11381092
193,蜆橋跡,大阪府大阪市北区曾根崎新地１丁目１－４９ 梅田滋賀ビル ,34.69635,135.501007,名所・史跡,10,https://4travel.jp/dm_shisetsu/11382031
194,毛馬排水機場,大阪府大阪市北区長柄東3丁目3-25,34.718758,135.516006,名所・史跡,8,https://4travel.jp/dm_shisetsu/11290331
195,神農祭,大阪府大阪市中央区道修町2-1-8 ,34.688538,135.506027,祭り・イベント,5,https://4travel.jp/dm_shisetsu/11339079
196,コカ コーラウエスト,大阪府大阪市北区大深町3-1 グランフロント大阪 ナレッジキャピタル3F,34.705833,135.494339,名所・史跡,28,https://4travel.jp/dm_shisetsu/11341094
197,湊橋,大阪府大阪市北区中之島6丁目～大阪市西区土佐堀3丁目,34.687092,135.48439,名所・史跡,15,https://4travel.jp/dm_shisetsu/11291084
198,天満興正寺御坊跡,大阪府大阪市北区天満4丁目7 滝川公園内,34.694107,135.514633,名所・史跡,11,https://4travel.jp/dm_shisetsu/11291651
199,上福島北公園,大阪府大阪市福島区福島7-23,34.700703,135.486069,公園・植物園,11,https://4travel.jp/dm_shisetsu/11353912
200,慈雲尊者生誕之地,大阪府大阪市北区中之島5-3 NTT中之島ビル横,34.690937,135.486832,名所・史跡,11,https://4travel.jp/dm_shisetsu/11377620
201,ウメダ アイスリンク,大阪府大阪市北区大深町4-1,34.703659,135.494705,テーマパーク,3,https://4travel.jp/dm_shisetsu/11766925
202,新梅田シティ内郵便局,大阪府大阪市 北区大淀中1-1-90-B100,34.704723,135.491013,名所・史跡,7,https://4travel.jp/dm_shisetsu/11602547
203,岩本記念室,大阪府大阪市北区中之島1丁目1番27号,34.693508,135.504532,美術館・博物館,6,https://4travel.jp/dm_shisetsu/11343424
204,ちゃやまちプロムナード,大阪府大阪市北区茶屋町16番、17番、19番 阪急梅田駅茶屋町口東側,34.707989,135.499969,名所・史跡,13,https://4travel.jp/dm_shisetsu/11382259
205,都島由来記,大阪府大阪市都島区網島町11,34.697468,135.524094,名所・史跡,11,https://4travel.jp/dm_shisetsu/11349655
206,豊崎神社,大阪府大阪市北区豊崎6丁目6-4,34.714748,135.50209,寺・神社,7,https://4travel.jp/dm_shisetsu/11289884
207,櫻宮神社,大阪府大阪市都島区中野町1-12-32,34.700432,135.523773,寺・神社,15,https://4travel.jp/dm_shisetsu/11349650
208,都島神社,大阪府大阪市都島区都島本通１丁目５－５,34.709057,135.52301,寺・神社,8,https://4travel.jp/dm_shisetsu/11349639
209,鶴の茶屋跡碑,大阪府大阪市北区茶屋町8-6,34.706753,135.499771,名所・史跡,13,https://4travel.jp/dm_shisetsu/11381112
210,HDC大阪 (ハウジング,大阪府大阪市北区大深町3-1 グランフロント大阪 ナレッジキャピタル5F,34.705833,135.494339,名所・史跡,11,https://4travel.jp/dm_shisetsu/11341117
211,蕪村公園,大阪府大阪市都島区毛馬町１丁目１２,34.71875,135.519897,公園・植物園,8,https://4travel.jp/dm_shisetsu/11327693
212,沖野忠雄像,大阪市北区長柄東3丁目３　淀川河川公園,34.719051,135.514648,名所・史跡,6,https://4travel.jp/dm_shisetsu/11343995
213,トクトクチケット,大阪市北区梅田1-1-3 大阪駅前第3ビルB2F-16,34.698402,135.499878,名所・史跡,7,https://4travel.jp/dm_shisetsu/11560539
214,グラビティ リサーチ,大阪府大阪市北区大深町3-1 グランフロント大阪 ナレッジキャピタル6F,34.705833,135.494339,名所・史跡,11,https://4travel.jp/dm_shisetsu/11341118
215,1000000人のキャンドルナイト＠OSAKA CITY,大阪府大阪市北区梅田 梅田1丁目～3丁目の屋外 （西梅田会場）,34.69857,135.493851,祭り・イベント,7,https://4travel.jp/dm_shisetsu/11344854
216,菅原町の土蔵,大阪府大阪市北区菅原町6-1,34.693233,135.509903,名所・史跡,6,https://4travel.jp/dm_shisetsu/11289989
217,越中橋,大阪府大阪市北区中之島5丁目～大阪市西区土佐堀2丁目,34.690281,135.487946,名所・史跡,15,https://4travel.jp/dm_shisetsu/11290921
218,青湾の碑,大阪府大阪市都島区中野町1-10　毛馬桜之宮公園内,34.698975,135.523575,名所・史跡,9,https://4travel.jp/dm_shisetsu/11349652
219,ナレッジシアター,大阪府大阪市北区大深町3-1 グランフロント大阪,34.705833,135.494339,名所・史跡,8,https://4travel.jp/dm_shisetsu/11341709
220,毛馬の残念石,大阪府大阪市北区長柄東3-3-25,34.718758,135.516006,名所・史跡,8,https://4travel.jp/dm_shisetsu/11343993
221,天神祭奉納花火,大阪府大阪市北区天満,34.693626,135.515366,花火,14,https://4travel.jp/dm_shisetsu/11287250
222,大丸ミュージアム<梅田>,大阪府大阪市北区梅田3-1-1　大丸梅田店15F,34.701881,135.496338,美術館・博物館,10,https://4travel.jp/dm_shisetsu/11311628
223,八坂神社 (大二八坂神社),大阪府大阪市北区大淀中3丁目1-23,34.702557,135.48465,寺・神社,7,https://4travel.jp/dm_shisetsu/11290004
224,日本旅行 鉄道プラザ,大阪府大阪市北区梅田3-1-3 JR大阪駅ノースゲートビルディング11F サポートプラザ内,34.701881,135.496338,美術館・博物館,10,https://4travel.jp/dm_shisetsu/11340697
225,池上雪枝感化院跡,大阪府大阪市北区松ケ枝町3-20,34.699478,135.516449,名所・史跡,8,https://4travel.jp/dm_shisetsu/11291648
226,淀川改修紀功碑,大阪市北区長柄東3丁目３　淀川河川公園,34.719051,135.514648,名所・史跡,5,https://4travel.jp/dm_shisetsu/11348170
227,かしく祭,大阪府大阪市北区曽根崎1-2-19 法清寺,34.698837,135.502884,祭り・イベント,2,https://4travel.jp/dm_shisetsu/11333826
228,南蛮文化館,大阪府大阪市北区中津6-2-18,34.709515,135.491669,美術館・博物館,6,https://4travel.jp/dm_shisetsu/10601445
229,与謝蕪村之顕彰碑 (春風や,大阪府大阪市都島区毛馬町１-12 蕪村公園内,34.71875,135.519897,名所・史跡,5,https://4travel.jp/dm_shisetsu/11348172
230,中之島四季の丘,大阪府大阪市北区中之島3-6,34.692917,135.492538,名所・史跡,2,https://4travel.jp/dm_shisetsu/11930351
231,淀川河川公園 海老江地区,大阪府大阪市福島区海老江,34.696053,135.473099,公園・植物園,6,https://4travel.jp/dm_shisetsu/11346427
232,鵺塚,大阪府大阪市都島区都島本通3-18,34.707684,135.526855,名所・史跡,3,https://4travel.jp/dm_shisetsu/11349649
233,富島神社,大阪府大阪市北区中津2丁目5-10,34.713211,135.495468,寺・神社,7,https://4travel.jp/dm_shisetsu/11289986
234,まほうびん記念館,大阪府大阪市北区天満1丁目20番5号（象印マホービン株式会社 本社1F）,34.695431,135.518112,美術館・博物館,4,https://4travel.jp/dm_shisetsu/11311621
235,北大阪戦没者慰霊聖観音,大阪府大阪市北区天神橋8,34.717445,135.511551,名所・史跡,4,https://4travel.jp/dm_shisetsu/11348951
236,洗心洞跡碑,大阪府大阪市北区天満1丁目25,34.697128,135.519592,名所・史跡,7,https://4travel.jp/dm_shisetsu/11333117
237,セブンスデー アドベンチスト大阪センター教会,大阪府大阪市北区天満2-2-10-201,34.692379,135.515808,名所・史跡,4,https://4travel.jp/dm_shisetsu/11363727
238,台湾観光協会 大阪事務所,大阪府大阪市北区西天満4-14-3 住友生命御堂筋ビル,34.697163,135.501205,名所・史跡,6,https://4travel.jp/dm_shisetsu/11331266
239,毎日新聞大阪本社,大阪府大阪市北区梅田3-4-5,34.697933,135.490692,名所・史跡,5,https://4travel.jp/dm_shisetsu/11311624
240,母恩寺,大阪府大阪市都島区都島本通1丁目20－22,34.710014,135.522446,寺・神社,4,https://4travel.jp/dm_shisetsu/11349638
241,水防団体設立の記念碑,大阪市北区長柄東3丁目３淀川河川公園,34.719051,135.514648,名所・史跡,4,https://4travel.jp/dm_shisetsu/11348168
242,堀川戎神社 十日戎,大阪府大阪市北区西天満5-4-17　　堀川戎神社,34.699738,135.509079,祭り・イベント,4,https://4travel.jp/dm_shisetsu/11359462
243,淀川キリスト教病院附属うめきたクリニック,大阪府大阪市北区大深町3-1 グランフロント大阪 ナレッジキャピタル6F,34.705833,135.494339,名所・史跡,5,https://4travel.jp/dm_shisetsu/11341119
244,ナレッジキャピタル コングレコンベンションセンター,大阪府大阪市北区大深町3-1 グランフロント大阪内,34.705833,135.494339,名所・史跡,5,https://4travel.jp/dm_shisetsu/11341707
245,學則天,大阪府大阪市北区中之島4-2-1 大阪市立科学館,34.691406,135.492493,名所・史跡,5,https://4travel.jp/dm_shisetsu/11382007
246,アクティブラボ,大阪府大阪市北区大深町3-1 グランフロント大阪 ナレッジキャピタル2F～3F,34.705833,135.494339,名所・史跡,7,https://4travel.jp/dm_shisetsu/11341108
247,トワイライトファンタジー,大阪府大阪市北区梅田3-1-3,34.701881,135.496338,祭り・イベント,3,https://4travel.jp/dm_shisetsu/11378467
248,法秀山 善徳寺,大阪市北区中崎西1-2-7,34.706509,135.504456,寺・神社,7,https://4travel.jp/dm_shisetsu/11356261
249,淀川改修記念碑,大阪市福島区海老江6-4　八坂神社北側公園内,34.698921,135.470779,名所・史跡,5,https://4travel.jp/dm_shisetsu/11348180
250,スイーツ ラボ,大阪府大阪市北区大深町3-1 グランフロント大阪 ナレッジキャピタル4F,34.705833,135.494339,名所・史跡,5,https://4travel.jp/dm_shisetsu/11341116
251,旧西成大橋の親柱,大阪市福島区海老江6-4-2　 八坂神社境内,34.698792,135.4711,名所・史跡,4,https://4travel.jp/dm_shisetsu/11348178
252,Countdown in,大阪府大阪市大淀中1-1 梅田スカイビル40F・屋上　梅田スカイビル・空中庭園展望台,34.650276,135.472778,祭り・イベント,3,https://4travel.jp/dm_shisetsu/11357615
253,天下の台所 ざこばの朝市,大阪市福島区野田1丁目1番地 ,34.684071,135.477783,祭り・イベント,3,https://4travel.jp/dm_shisetsu/11291467
254,正宣寺,大阪府大阪市北区中崎西1丁目6-23,34.707695,135.504166,寺・神社,5,https://4travel.jp/dm_shisetsu/11338997
255,鶴満寺,大阪府大阪市北区長柄東1-3-1,34.710461,135.516571,寺・神社,3,https://4travel.jp/dm_shisetsu/11344562
256,てんま天神梅まつり 盆梅,大阪府大阪市北区天神橋2-1-8 大阪天満宮,34.69553,135.512634,祭り・イベント,3,https://4travel.jp/dm_shisetsu/11375861
257,ZERO,大阪府大阪市北区梅田1-2-2-100号B1,34.698402,135.498413,名所・史跡,3,https://4travel.jp/dm_shisetsu/11616256
258,Owl Osaka,大阪府大阪市北区角田町5-1 梅田楽天地ビルB1,34.703781,135.500946,名所・史跡,2,https://4travel.jp/dm_shisetsu/11350014
259,農業用水門,大阪府大阪市都島区都島北通1－1,34.709335,135.526688,名所・史跡,3,https://4travel.jp/dm_shisetsu/11349647
260,オクトーバーフェストイン新梅田シティ,大阪府大阪市北区大淀中1-1 新梅田シティ 梅田スカイビル ワンダースクエア,34.705437,135.490128,祭り・イベント,2,https://4travel.jp/dm_shisetsu/11292327
261,水防碑 (北区),大阪府大阪市北区中津7丁目 十三小橋北詰,34.711452,135.486069,名所・史跡,2,https://4travel.jp/dm_shisetsu/11348173
262,新淀川改修安全灯,大阪府大阪市北区中津7丁目 十三大橋南詰,34.711452,135.486069,名所・史跡,2,https://4travel.jp/dm_shisetsu/11348175
263,梅田ゆかた祭,大阪府大阪市北区,34.705555,135.509995,祭り・イベント,2,https://4travel.jp/dm_shisetsu/11366773
264,伝法川跡碑,大阪府大阪市此花区伝法2-10,34.687412,135.455078,名所・史跡,2,https://4travel.jp/dm_shisetsu/11348183
265,堂島薬師堂 節分お水汲み祭り,大阪市北区堂島1-6-20,34.697212,135.495636,祭り・イベント,2,https://4travel.jp/dm_shisetsu/11355730
266,浄徳寺,大阪府大阪市西区北堀江3丁目11番30号,34.6744,135.488022,寺・神社,2,https://4travel.jp/dm_shisetsu/11338998
267,ベルギービールウィークエンド 大阪,大阪府大阪市北区大淀中1-1-88 梅田スカイビル新梅田シティ ワンダースクエア,34.704918,135.491028,祭り・イベント,2,https://4travel.jp/dm_shisetsu/11554952
268,龍渓禅師墓所,大阪府大阪市西区本田三丁目4－18　九島院,34.677956,135.475189,名所・史跡,1,https://4travel.jp/dm_shisetsu/11335951
269,海老江八坂神社,大阪府大阪市福島区海老江6丁目4番2,34.698792,135.4711,寺・神社,1,https://4travel.jp/dm_shisetsu/11557388
270,VR ZONE,大阪府大阪市北区角田町5-15 HEP FIVE 8F、9F,34.703846,135.499634,テーマパーク,1,https://4travel.jp/dm_shisetsu/11753630
